header:
  stamp:
    sec: 1760270668
    nanosec: 239577207
  frame_id: imu_link
orientation:
  x: 0.0
  y: 0.0
  z: 0.0
  w: 0.0
orientation_covariance:
- -1.0
- 0.0
- 0.0
- 0.0
- 0.0
- 0.0
- 0.0
- 0.0
- 0.0
angular_velocity:
  x: -0.0031957945320755243
  y: -0.006391589064151049
  z: -0.0031957945320755243
angular_velocity_covariance:
- 0.0
- 0.0
- 0.0
- 0.0
- 0.0
- 0.0
- 0.0
- 0.0
- 0.0
linear_acceleration:
  x: -0.14594726264476776
  y: -0.14833985269069672
  z: 9.962695121765137
linear_acceleration_covariance:
- 100.0
- 0.0
- 0.0
- 0.0
- 100.0
- 0.0
- 0.0
- 0.0
- 100.0
---
header:
  stamp:
    sec: 1760270668
    nanosec: 262575207
  frame_id: imu_link
orientation:
  x: 0.0
  y: 0.0
  z: 0.0
  w: 0.0
orientation_covariance:
- -1.0
- 0.0
- 0.0
- 0.0
- 0.0
- 0.0
- 0.0
- 0.0
- 0.0
angular_velocity:
  x: 0.0021305298432707787
  y: -0.006391589064151049
  z: -0.0021305298432707787
angular_velocity_covariance:
- 0.0
- 0.0
- 0.0
- 0.0
- 0.0
- 0.0
- 0.0
- 0.0
- 0.0
linear_acceleration:
  x: -0.08613281697034836
  y: -0.08852539211511612
  z: 9.965087890625
linear_acceleration_covariance:
- 100.0
- 0.0
- 0.0
- 0.0
- 100.0
- 0.0
- 0.0
- 0.0
- 100.0
---
header:
  stamp:
    sec: 1760270668
    nanosec: 284577207
  frame_id: imu_link
orientation:
  x: 0.0
  y: 0.0
  z: 0.0
  w: 0.0
orientation_covariance:
- -1.0
- 0.0
- 0.0
- 0.0
- 0.0
- 0.0
- 0.0
- 0.0
- 0.0
angular_velocity:
  x: 0.0
  y: -0.005326324608176947
  z: -0.004261059686541557
angular_velocity_covariance:
- 0.0
- 0.0
- 0.0
- 0.0
- 0.0
- 0.0
- 0.0
- 0.0
- 0.0
linear_acceleration:
  x: -0.07416992634534836
  y: -0.11962890625
  z: 9.962695121765137
linear_acceleration_covariance:
- 100.0
- 0.0
- 0.0
- 0.0
- 100.0
- 0.0
- 0.0
- 0.0
- 100.0
---
header:
  stamp:
    sec: 1760270668
    nanosec: 306575207
  frame_id: imu_link
orientation:
  x: 0.0
  y: 0.0
  z: 0.0
  w: 0.0
orientation_covariance:
- -1.0
- 0.0
- 0.0
- 0.0
- 0.0
- 0.0
- 0.0
- 0.0
- 0.0
angular_velocity:
  x: 0.004261059686541557
  y: -0.007456853985786438
  z: -0.0031957945320755243
angular_velocity_covariance:
- 0.0
- 0.0
- 0.0
- 0.0
- 0.0
- 0.0
- 0.0
- 0.0
- 0.0
linear_acceleration:
  x: -0.083740234375
  y: -0.083740234375
  z: 9.967480659484863
linear_acceleration_covariance:
- 100.0
- 0.0
- 0.0
- 0.0
- 100.0
- 0.0
- 0.0
- 0.0
- 100.0
---
header:
  stamp:
    sec: 1760270668
    nanosec: 329577207
  frame_id: imu_link
orientation:
  x: 0.0
  y: 0.0
  z: 0.0
  w: 0.0
orientation_covariance:
- -1.0
- 0.0
- 0.0
- 0.0
- 0.0
- 0.0
- 0.0
- 0.0
- 0.0
angular_velocity:
  x: 0.0031957945320755243
  y: -0.007456853985786438
  z: -0.004261059686541557
angular_velocity_covariance:
- 0.0
- 0.0
- 0.0
- 0.0
- 0.0
- 0.0
- 0.0
- 0.0
- 0.0
linear_acceleration:
  x: -0.04306640848517418
  y: -0.08613281697034836
  z: 9.957910537719727
linear_acceleration_covariance:
- 100.0
- 0.0
- 0.0
- 0.0
- 100.0
- 0.0
- 0.0
- 0.0
- 100.0
---
header:
  stamp:
    sec: 1760270668
    nanosec: 351575207
  frame_id: imu_link
orientation:
  x: 0.0
  y: 0.0
  z: 0.0
  w: 0.0
orientation_covariance:
- -1.0
- 0.0
- 0.0
- 0.0
- 0.0
- 0.0
- 0.0
- 0.0
- 0.0
angular_velocity:
  x: 0.0021305298432707787
  y: -0.006391589064151049
  z: -0.004261059686541557
angular_velocity_covariance:
- 0.0
- 0.0
- 0.0
- 0.0
- 0.0
- 0.0
- 0.0
- 0.0
- 0.0
linear_acceleration:
  x: -0.09331054985523224
  y: -0.095703125
  z: 9.962695121765137
linear_acceleration_covariance:
- 100.0
- 0.0
- 0.0
- 0.0
- 100.0
- 0.0
- 0.0
- 0.0
- 100.0
---
header:
  stamp:
    sec: 1760270668
    nanosec: 373577207
  frame_id: imu_link
orientation:
  x: 0.0
  y: 0.0
  z: 0.0
  w: 0.0
orientation_covariance:
- -1.0
- 0.0
- 0.0
- 0.0
- 0.0
- 0.0
- 0.0
- 0.0
- 0.0
angular_velocity:
  x: 0.0
  y: -0.006391589064151049
  z: -0.004261059686541557
angular_velocity_covariance:
- 0.0
- 0.0
- 0.0
- 0.0
- 0.0
- 0.0
- 0.0
- 0.0
- 0.0
linear_acceleration:
  x: -0.11962890625
  y: -0.11484375596046448
  z: 9.953125
linear_acceleration_covariance:
- 100.0
- 0.0
- 0.0
- 0.0
- 100.0
- 0.0
- 0.0
- 0.0
- 100.0
---
header:
  stamp:
    sec: 1760270668
    nanosec: 396575207
  frame_id: imu_link
orientation:
  x: 0.0
  y: 0.0
  z: 0.0
  w: 0.0
orientation_covariance:
- -1.0
- 0.0
- 0.0
- 0.0
- 0.0
- 0.0
- 0.0
- 0.0
- 0.0
angular_velocity:
  x: 0.0
  y: -0.004261059686541557
  z: -0.004261059686541557
angular_velocity_covariance:
- 0.0
- 0.0
- 0.0
- 0.0
- 0.0
- 0.0
- 0.0
- 0.0
- 0.0
linear_acceleration:
  x: -0.09091796725988388
  y: -0.10288085788488388
  z: 9.953125
linear_acceleration_covariance:
- 100.0
- 0.0
- 0.0
- 0.0
- 100.0
- 0.0
- 0.0
- 0.0
- 100.0
---
header:
  stamp:
    sec: 1760270668
    nanosec: 418577207
  frame_id: imu_link
orientation:
  x: 0.0
  y: 0.0
  z: 0.0
  w: 0.0
orientation_covariance:
- -1.0
- 0.0
- 0.0
- 0.0
- 0.0
- 0.0
- 0.0
- 0.0
- 0.0
angular_velocity:
  x: 0.0021305298432707787
  y: -0.007456853985786438
  z: -0.004261059686541557
angular_velocity_covariance:
- 0.0
- 0.0
- 0.0
- 0.0
- 0.0
- 0.0
- 0.0
- 0.0
- 0.0
linear_acceleration:
  x: -0.05502929911017418
  y: -0.10288085788488388
  z: 9.969873428344727
linear_acceleration_covariance:
- 100.0
- 0.0
- 0.0
- 0.0
- 100.0
- 0.0
- 0.0
- 0.0
- 100.0
---
header:
  stamp:
    sec: 1760270668
    nanosec: 440575207
  frame_id: imu_link
orientation:
  x: 0.0
  y: 0.0
  z: 0.0
  w: 0.0
orientation_covariance:
- -1.0
- 0.0
- 0.0
- 0.0
- 0.0
- 0.0
- 0.0
- 0.0
- 0.0
angular_velocity:
  x: -0.0021305298432707787
  y: -0.006391589064151049
  z: -0.0031957945320755243
angular_velocity_covariance:
- 0.0
- 0.0
- 0.0
- 0.0
- 0.0
- 0.0
- 0.0
- 0.0
- 0.0
linear_acceleration:
  x: -0.10048828274011612
  y: -0.10048828274011612
  z: 9.969873428344727
linear_acceleration_covariance:
- 100.0
- 0.0
- 0.0
- 0.0
- 100.0
- 0.0
- 0.0
- 0.0
- 100.0
---
header:
  stamp:
    sec: 1760270668
    nanosec: 462577207
  frame_id: imu_link
orientation:
  x: 0.0
  y: 0.0
  z: 0.0
  w: 0.0
orientation_covariance:
- -1.0
- 0.0
- 0.0
- 0.0
- 0.0
- 0.0
- 0.0
- 0.0
- 0.0
angular_velocity:
  x: 0.0
  y: -0.005326324608176947
  z: -0.0010652649216353893
angular_velocity_covariance:
- 0.0
- 0.0
- 0.0
- 0.0
- 0.0
- 0.0
- 0.0
- 0.0
- 0.0
linear_acceleration:
  x: -0.11245117336511612
  y: -0.11962890625
  z: 9.945947647094727
linear_acceleration_covariance:
- 100.0
- 0.0
- 0.0
- 0.0
- 100.0
- 0.0
- 0.0
- 0.0
- 100.0
---
header:
  stamp:
    sec: 1760270668
    nanosec: 485575207
  frame_id: imu_link
orientation:
  x: 0.0
  y: 0.0
  z: 0.0
  w: 0.0
orientation_covariance:
- -1.0
- 0.0
- 0.0
- 0.0
- 0.0
- 0.0
- 0.0
- 0.0
- 0.0
angular_velocity:
  x: -0.0010652649216353893
  y: -0.004261059686541557
  z: 0.0021305298432707787
angular_velocity_covariance:
- 0.0
- 0.0
- 0.0
- 0.0
- 0.0
- 0.0
- 0.0
- 0.0
- 0.0
linear_acceleration:
  x: -0.11005859822034836
  y: -0.12441406399011612
  z: 9.965087890625
linear_acceleration_covariance:
- 100.0
- 0.0
- 0.0
- 0.0
- 100.0
- 0.0
- 0.0
- 0.0
- 100.0
---
header:
  stamp:
    sec: 1760270668
    nanosec: 507577207
  frame_id: imu_link
orientation:
  x: 0.0
  y: 0.0
  z: 0.0
  w: 0.0
orientation_covariance:
- -1.0
- 0.0
- 0.0
- 0.0
- 0.0
- 0.0
- 0.0
- 0.0
- 0.0
angular_velocity:
  x: 0.0021305298432707787
  y: -0.007456853985786438
  z: -0.0031957945320755243
angular_velocity_covariance:
- 0.0
- 0.0
- 0.0
- 0.0
- 0.0
- 0.0
- 0.0
- 0.0
- 0.0
linear_acceleration:
  x: -0.06699218600988388
  y: -0.08852539211511612
  z: 9.965087890625
linear_acceleration_covariance:
- 100.0
- 0.0
- 0.0
- 0.0
- 100.0
- 0.0
- 0.0
- 0.0
- 100.0
---
header:
  stamp:
    sec: 1760270668
    nanosec: 529575207
  frame_id: imu_link
orientation:
  x: 0.0
  y: 0.0
  z: 0.0
  w: 0.0
orientation_covariance:
- -1.0
- 0.0
- 0.0
- 0.0
- 0.0
- 0.0
- 0.0
- 0.0
- 0.0
angular_velocity:
  x: 0.0
  y: -0.006391589064151049
  z: -0.0021305298432707787
angular_velocity_covariance:
- 0.0
- 0.0
- 0.0
- 0.0
- 0.0
- 0.0
- 0.0
- 0.0
- 0.0
linear_acceleration:
  x: -0.06220703199505806
  y: -0.05263672024011612
  z: 9.953125
linear_acceleration_covariance:
- 100.0
- 0.0
- 0.0
- 0.0
- 100.0
- 0.0
- 0.0
- 0.0
- 100.0
---
header:
  stamp:
    sec: 1760270668
    nanosec: 552577207
  frame_id: imu_link
orientation:
  x: 0.0
  y: 0.0
  z: 0.0
  w: 0.0
orientation_covariance:
- -1.0
- 0.0
- 0.0
- 0.0
- 0.0
- 0.0
- 0.0
- 0.0
- 0.0
angular_velocity:
  x: -0.0010652649216353893
  y: -0.005326324608176947
  z: -0.0031957945320755243
angular_velocity_covariance:
- 0.0
- 0.0
- 0.0
- 0.0
- 0.0
- 0.0
- 0.0
- 0.0
- 0.0
linear_acceleration:
  x: -0.10048828274011612
  y: -0.11962890625
  z: 9.955517768859863
linear_acceleration_covariance:
- 100.0
- 0.0
- 0.0
- 0.0
- 100.0
- 0.0
- 0.0
- 0.0
- 100.0
---
header:
  stamp:
    sec: 1760270668
    nanosec: 574575207
  frame_id: imu_link
orientation:
  x: 0.0
  y: 0.0
  z: 0.0
  w: 0.0
orientation_covariance:
- -1.0
- 0.0
- 0.0
- 0.0
- 0.0
- 0.0
- 0.0
- 0.0
- 0.0
angular_velocity:
  x: -0.0010652649216353893
  y: -0.005326324608176947
  z: -0.004261059686541557
angular_velocity_covariance:
- 0.0
- 0.0
- 0.0
- 0.0
- 0.0
- 0.0
- 0.0
- 0.0
- 0.0
linear_acceleration:
  x: -0.07656250149011612
  y: -0.07895507663488388
  z: 9.97226619720459
linear_acceleration_covariance:
- 100.0
- 0.0
- 0.0
- 0.0
- 100.0
- 0.0
- 0.0
- 0.0
- 100.0
---
header:
  stamp:
    sec: 1760270668
    nanosec: 596577207
  frame_id: imu_link
orientation:
  x: 0.0
  y: 0.0
  z: 0.0
  w: 0.0
orientation_covariance:
- -1.0
- 0.0
- 0.0
- 0.0
- 0.0
- 0.0
- 0.0
- 0.0
- 0.0
angular_velocity:
  x: 0.0031957945320755243
  y: -0.008522119373083115
  z: -0.0021305298432707787
angular_velocity_covariance:
- 0.0
- 0.0
- 0.0
- 0.0
- 0.0
- 0.0
- 0.0
- 0.0
- 0.0
linear_acceleration:
  x: -0.10288085788488388
  y: -0.10527344048023224
  z: 9.967480659484863
linear_acceleration_covariance:
- 100.0
- 0.0
- 0.0
- 0.0
- 100.0
- 0.0
- 0.0
- 0.0
- 100.0
---
header:
  stamp:
    sec: 1760270668
    nanosec: 618575207
  frame_id: imu_link
orientation:
  x: 0.0
  y: 0.0
  z: 0.0
  w: 0.0
orientation_covariance:
- -1.0
- 0.0
- 0.0
- 0.0
- 0.0
- 0.0
- 0.0
- 0.0
- 0.0
angular_velocity:
  x: 0.0
  y: -0.006391589064151049
  z: -0.0021305298432707787
angular_velocity_covariance:
- 0.0
- 0.0
- 0.0
- 0.0
- 0.0
- 0.0
- 0.0
- 0.0
- 0.0
linear_acceleration:
  x: -0.083740234375
  y: -0.09809570759534836
  z: 9.974658012390137
linear_acceleration_covariance:
- 100.0
- 0.0
- 0.0
- 0.0
- 100.0
- 0.0
- 0.0
- 0.0
- 100.0
---
header:
  stamp:
    sec: 1760270668
    nanosec: 640577207
  frame_id: imu_link
orientation:
  x: 0.0
  y: 0.0
  z: 0.0
  w: 0.0
orientation_covariance:
- -1.0
- 0.0
- 0.0
- 0.0
- 0.0
- 0.0
- 0.0
- 0.0
- 0.0
angular_velocity:
  x: 0.0010652649216353893
  y: -0.004261059686541557
  z: -0.0010652649216353893
angular_velocity_covariance:
- 0.0
- 0.0
- 0.0
- 0.0
- 0.0
- 0.0
- 0.0
- 0.0
- 0.0
linear_acceleration:
  x: -0.08852539211511612
  y: -0.09809570759534836
  z: 9.943554878234863
linear_acceleration_covariance:
- 100.0
- 0.0
- 0.0
- 0.0
- 100.0
- 0.0
- 0.0
- 0.0
- 100.0
---
header:
  stamp:
    sec: 1760270668
    nanosec: 662575207
  frame_id: imu_link
orientation:
  x: 0.0
  y: 0.0
  z: 0.0
  w: 0.0
orientation_covariance:
- -1.0
- 0.0
- 0.0
- 0.0
- 0.0
- 0.0
- 0.0
- 0.0
- 0.0
angular_velocity:
  x: 0.0010652649216353893
  y: -0.004261059686541557
  z: -0.0021305298432707787
angular_velocity_covariance:
- 0.0
- 0.0
- 0.0
- 0.0
- 0.0
- 0.0
- 0.0
- 0.0
- 0.0
linear_acceleration:
  x: -0.10048828274011612
  y: -0.10048828274011612
  z: 9.962695121765137
linear_acceleration_covariance:
- 100.0
- 0.0
- 0.0
- 0.0
- 100.0
- 0.0
- 0.0
- 0.0
- 100.0
---
header:
  stamp:
    sec: 1760270668
    nanosec: 685577207
  frame_id: imu_link
orientation:
  x: 0.0
  y: 0.0
  z: 0.0
  w: 0.0
orientation_covariance:
- -1.0
- 0.0
- 0.0
- 0.0
- 0.0
- 0.0
- 0.0
- 0.0
- 0.0
angular_velocity:
  x: 0.0021305298432707787
  y: -0.007456853985786438
  z: -0.0031957945320755243
angular_velocity_covariance:
- 0.0
- 0.0
- 0.0
- 0.0
- 0.0
- 0.0
- 0.0
- 0.0
- 0.0
linear_acceleration:
  x: -0.10048828274011612
  y: -0.11962890625
  z: 9.97226619720459
linear_acceleration_covariance:
- 100.0
- 0.0
- 0.0
- 0.0
- 100.0
- 0.0
- 0.0
- 0.0
- 100.0
---
header:
  stamp:
    sec: 1760270668
    nanosec: 707575207
  frame_id: imu_link
orientation:
  x: 0.0
  y: 0.0
  z: 0.0
  w: 0.0
orientation_covariance:
- -1.0
- 0.0
- 0.0
- 0.0
- 0.0
- 0.0
- 0.0
- 0.0
- 0.0
angular_velocity:
  x: 0.0
  y: -0.006391589064151049
  z: -0.004261059686541557
angular_velocity_covariance:
- 0.0
- 0.0
- 0.0
- 0.0
- 0.0
- 0.0
- 0.0
- 0.0
- 0.0
linear_acceleration:
  x: -0.10048828274011612
  y: -0.10048828274011612
  z: 9.969873428344727
linear_acceleration_covariance:
- 100.0
- 0.0
- 0.0
- 0.0
- 100.0
- 0.0
- 0.0
- 0.0
- 100.0
---
header:
  stamp:
    sec: 1760270668
    nanosec: 729577207
  frame_id: imu_link
orientation:
  x: 0.0
  y: 0.0
  z: 0.0
  w: 0.0
orientation_covariance:
- -1.0
- 0.0
- 0.0
- 0.0
- 0.0
- 0.0
- 0.0
- 0.0
- 0.0
angular_velocity:
  x: 0.0010652649216353893
  y: -0.007456853985786438
  z: -0.0021305298432707787
angular_velocity_covariance:
- 0.0
- 0.0
- 0.0
- 0.0
- 0.0
- 0.0
- 0.0
- 0.0
- 0.0
linear_acceleration:
  x: -0.09331054985523224
  y: -0.11005859822034836
  z: 9.962695121765137
linear_acceleration_covariance:
- 100.0
- 0.0
- 0.0
- 0.0
- 100.0
- 0.0
- 0.0
- 0.0
- 100.0
---
header:
  stamp:
    sec: 1760270668
    nanosec: 752575207
  frame_id: imu_link
orientation:
  x: 0.0
  y: 0.0
  z: 0.0
  w: 0.0
orientation_covariance:
- -1.0
- 0.0
- 0.0
- 0.0
- 0.0
- 0.0
- 0.0
- 0.0
- 0.0
angular_velocity:
  x: -0.0010652649216353893
  y: -0.005326324608176947
  z: -0.0031957945320755243
angular_velocity_covariance:
- 0.0
- 0.0
- 0.0
- 0.0
- 0.0
- 0.0
- 0.0
- 0.0
- 0.0
linear_acceleration:
  x: -0.095703125
  y: -0.11484375596046448
  z: 9.955517768859863
linear_acceleration_covariance:
- 100.0
- 0.0
- 0.0
- 0.0
- 100.0
- 0.0
- 0.0
- 0.0
- 100.0
---
header:
  stamp:
    sec: 1760270668
    nanosec: 774577207
  frame_id: imu_link
orientation:
  x: 0.0
  y: 0.0
  z: 0.0
  w: 0.0
orientation_covariance:
- -1.0
- 0.0
- 0.0
- 0.0
- 0.0
- 0.0
- 0.0
- 0.0
- 0.0
angular_velocity:
  x: 0.0031957945320755243
  y: -0.005326324608176947
  z: -0.004261059686541557
angular_velocity_covariance:
- 0.0
- 0.0
- 0.0
- 0.0
- 0.0
- 0.0
- 0.0
- 0.0
- 0.0
linear_acceleration:
  x: -0.08852539211511612
  y: -0.10288085788488388
  z: 9.962695121765137
linear_acceleration_covariance:
- 100.0
- 0.0
- 0.0
- 0.0
- 100.0
- 0.0
- 0.0
- 0.0
- 100.0
---
header:
  stamp:
    sec: 1760270668
    nanosec: 797575207
  frame_id: imu_link
orientation:
  x: 0.0
  y: 0.0
  z: 0.0
  w: 0.0
orientation_covariance:
- -1.0
- 0.0
- 0.0
- 0.0
- 0.0
- 0.0
- 0.0
- 0.0
- 0.0
angular_velocity:
  x: -0.0010652649216353893
  y: -0.004261059686541557
  z: -0.0031957945320755243
angular_velocity_covariance:
- 0.0
- 0.0
- 0.0
- 0.0
- 0.0
- 0.0
- 0.0
- 0.0
- 0.0
linear_acceleration:
  x: -0.07656250149011612
  y: -0.083740234375
  z: 9.97705078125
linear_acceleration_covariance:
- 100.0
- 0.0
- 0.0
- 0.0
- 100.0
- 0.0
- 0.0
- 0.0
- 100.0
---
header:
  stamp:
    sec: 1760270668
    nanosec: 819577207
  frame_id: imu_link
orientation:
  x: 0.0
  y: 0.0
  z: 0.0
  w: 0.0
orientation_covariance:
- -1.0
- 0.0
- 0.0
- 0.0
- 0.0
- 0.0
- 0.0
- 0.0
- 0.0
angular_velocity:
  x: 0.0
  y: -0.005326324608176947
  z: -0.0021305298432707787
angular_velocity_covariance:
- 0.0
- 0.0
- 0.0
- 0.0
- 0.0
- 0.0
- 0.0
- 0.0
- 0.0
linear_acceleration:
  x: -0.07177734375
  y: -0.09331054985523224
  z: 9.955517768859863
linear_acceleration_covariance:
- 100.0
- 0.0
- 0.0
- 0.0
- 100.0
- 0.0
- 0.0
- 0.0
- 100.0
---
header:
  stamp:
    sec: 1760270668
    nanosec: 841575207
  frame_id: imu_link
orientation:
  x: 0.0
  y: 0.0
  z: 0.0
  w: 0.0
orientation_covariance:
- -1.0
- 0.0
- 0.0
- 0.0
- 0.0
- 0.0
- 0.0
- 0.0
- 0.0
angular_velocity:
  x: 0.0
  y: -0.0031957945320755243
  z: -0.005326324608176947
angular_velocity_covariance:
- 0.0
- 0.0
- 0.0
- 0.0
- 0.0
- 0.0
- 0.0
- 0.0
- 0.0
linear_acceleration:
  x: -0.13637696206569672
  y: -0.12919922173023224
  z: 9.986620903015137
linear_acceleration_covariance:
- 100.0
- 0.0
- 0.0
- 0.0
- 100.0
- 0.0
- 0.0
- 0.0
- 100.0
---
header:
  stamp:
    sec: 1760270668
    nanosec: 864577207
  frame_id: imu_link
orientation:
  x: 0.0
  y: 0.0
  z: 0.0
  w: 0.0
orientation_covariance:
- -1.0
- 0.0
- 0.0
- 0.0
- 0.0
- 0.0
- 0.0
- 0.0
- 0.0
angular_velocity:
  x: -0.0010652649216353893
  y: -0.006391589064151049
  z: -0.0031957945320755243
angular_velocity_covariance:
- 0.0
- 0.0
- 0.0
- 0.0
- 0.0
- 0.0
- 0.0
- 0.0
- 0.0
linear_acceleration:
  x: -0.11005859822034836
  y: -0.11962890625
  z: 9.955517768859863
linear_acceleration_covariance:
- 100.0
- 0.0
- 0.0
- 0.0
- 100.0
- 0.0
- 0.0
- 0.0
- 100.0
---
header:
  stamp:
    sec: 1760270668
    nanosec: 886575207
  frame_id: imu_link
orientation:
  x: 0.0
  y: 0.0
  z: 0.0
  w: 0.0
orientation_covariance:
- -1.0
- 0.0
- 0.0
- 0.0
- 0.0
- 0.0
- 0.0
- 0.0
- 0.0
angular_velocity:
  x: -0.0021305298432707787
  y: -0.004261059686541557
  z: -0.0010652649216353893
angular_velocity_covariance:
- 0.0
- 0.0
- 0.0
- 0.0
- 0.0
- 0.0
- 0.0
- 0.0
- 0.0
linear_acceleration:
  x: -0.0478515625
  y: -0.07177734375
  z: 9.97226619720459
linear_acceleration_covariance:
- 100.0
- 0.0
- 0.0
- 0.0
- 100.0
- 0.0
- 0.0
- 0.0
- 100.0
---
header:
  stamp:
    sec: 1760270668
    nanosec: 908577207
  frame_id: imu_link
orientation:
  x: 0.0
  y: 0.0
  z: 0.0
  w: 0.0
orientation_covariance:
- -1.0
- 0.0
- 0.0
- 0.0
- 0.0
- 0.0
- 0.0
- 0.0
- 0.0
angular_velocity:
  x: 0.0010652649216353893
  y: -0.006391589064151049
  z: -0.0010652649216353893
angular_velocity_covariance:
- 0.0
- 0.0
- 0.0
- 0.0
- 0.0
- 0.0
- 0.0
- 0.0
- 0.0
linear_acceleration:
  x: -0.05024414137005806
  y: -0.09091796725988388
  z: 9.945947647094727
linear_acceleration_covariance:
- 100.0
- 0.0
- 0.0
- 0.0
- 100.0
- 0.0
- 0.0
- 0.0
- 100.0
---
header:
  stamp:
    sec: 1760270668
    nanosec: 930575207
  frame_id: imu_link
orientation:
  x: 0.0
  y: 0.0
  z: 0.0
  w: 0.0
orientation_covariance:
- -1.0
- 0.0
- 0.0
- 0.0
- 0.0
- 0.0
- 0.0
- 0.0
- 0.0
angular_velocity:
  x: -0.0010652649216353893
  y: -0.006391589064151049
  z: -0.0021305298432707787
angular_velocity_covariance:
- 0.0
- 0.0
- 0.0
- 0.0
- 0.0
- 0.0
- 0.0
- 0.0
- 0.0
linear_acceleration:
  x: -0.13398437201976776
  y: -0.11245117336511612
  z: 9.97226619720459
linear_acceleration_covariance:
- 100.0
- 0.0
- 0.0
- 0.0
- 100.0
- 0.0
- 0.0
- 0.0
- 100.0
---
header:
  stamp:
    sec: 1760270668
    nanosec: 952577207
  frame_id: imu_link
orientation:
  x: 0.0
  y: 0.0
  z: 0.0
  w: 0.0
orientation_covariance:
- -1.0
- 0.0
- 0.0
- 0.0
- 0.0
- 0.0
- 0.0
- 0.0
- 0.0
angular_velocity:
  x: 0.0021305298432707787
  y: -0.004261059686541557
  z: -0.0021305298432707787
angular_velocity_covariance:
- 0.0
- 0.0
- 0.0
- 0.0
- 0.0
- 0.0
- 0.0
- 0.0
- 0.0
linear_acceleration:
  x: -0.12441406399011612
  y: -0.131591796875
  z: 9.974658012390137
linear_acceleration_covariance:
- 100.0
- 0.0
- 0.0
- 0.0
- 100.0
- 0.0
- 0.0
- 0.0
- 100.0
---
header:
  stamp:
    sec: 1760270668
    nanosec: 974575207
  frame_id: imu_link
orientation:
  x: 0.0
  y: 0.0
  z: 0.0
  w: 0.0
orientation_covariance:
- -1.0
- 0.0
- 0.0
- 0.0
- 0.0
- 0.0
- 0.0
- 0.0
- 0.0
angular_velocity:
  x: -0.0010652649216353893
  y: -0.007456853985786438
  z: -0.0021305298432707787
angular_velocity_covariance:
- 0.0
- 0.0
- 0.0
- 0.0
- 0.0
- 0.0
- 0.0
- 0.0
- 0.0
linear_acceleration:
  x: -0.11005859822034836
  y: -0.11962890625
  z: 9.955517768859863
linear_acceleration_covariance:
- 100.0
- 0.0
- 0.0
- 0.0
- 100.0
- 0.0
- 0.0
- 0.0
- 100.0
---
header:
  stamp:
    sec: 1760270668
    nanosec: 997577207
  frame_id: imu_link
orientation:
  x: 0.0
  y: 0.0
  z: 0.0
  w: 0.0
orientation_covariance:
- -1.0
- 0.0
- 0.0
- 0.0
- 0.0
- 0.0
- 0.0
- 0.0
- 0.0
angular_velocity:
  x: 0.0031957945320755243
  y: -0.006391589064151049
  z: 0.0
angular_velocity_covariance:
- 0.0
- 0.0
- 0.0
- 0.0
- 0.0
- 0.0
- 0.0
- 0.0
- 0.0
linear_acceleration:
  x: -0.059814453125
  y: -0.08613281697034836
  z: 9.962695121765137
linear_acceleration_covariance:
- 100.0
- 0.0
- 0.0
- 0.0
- 100.0
- 0.0
- 0.0
- 0.0
- 100.0
---
header:
  stamp:
    sec: 1760270669
    nanosec: 19575207
  frame_id: imu_link
orientation:
  x: 0.0
  y: 0.0
  z: 0.0
  w: 0.0
orientation_covariance:
- -1.0
- 0.0
- 0.0
- 0.0
- 0.0
- 0.0
- 0.0
- 0.0
- 0.0
angular_velocity:
  x: -0.0021305298432707787
  y: -0.006391589064151049
  z: -0.0031957945320755243
angular_velocity_covariance:
- 0.0
- 0.0
- 0.0
- 0.0
- 0.0
- 0.0
- 0.0
- 0.0
- 0.0
linear_acceleration:
  x: -0.04306640848517418
  y: -0.05742187798023224
  z: 9.953125
linear_acceleration_covariance:
- 100.0
- 0.0
- 0.0
- 0.0
- 100.0
- 0.0
- 0.0
- 0.0
- 100.0
---
header:
  stamp:
    sec: 1760270669
    nanosec: 42577207
  frame_id: imu_link
orientation:
  x: 0.0
  y: 0.0
  z: 0.0
  w: 0.0
orientation_covariance:
- -1.0
- 0.0
- 0.0
- 0.0
- 0.0
- 0.0
- 0.0
- 0.0
- 0.0
angular_velocity:
  x: 0.0021305298432707787
  y: -0.005326324608176947
  z: -0.006391589064151049
angular_velocity_covariance:
- 0.0
- 0.0
- 0.0
- 0.0
- 0.0
- 0.0
- 0.0
- 0.0
- 0.0
linear_acceleration:
  x: -0.13398437201976776
  y: -0.11962890625
  z: 9.98422908782959
linear_acceleration_covariance:
- 100.0
- 0.0
- 0.0
- 0.0
- 100.0
- 0.0
- 0.0
- 0.0
- 100.0
---
header:
  stamp:
    sec: 1760270669
    nanosec: 64575207
  frame_id: imu_link
orientation:
  x: 0.0
  y: 0.0
  z: 0.0
  w: 0.0
orientation_covariance:
- -1.0
- 0.0
- 0.0
- 0.0
- 0.0
- 0.0
- 0.0
- 0.0
- 0.0
angular_velocity:
  x: 0.0
  y: -0.005326324608176947
  z: -0.0031957945320755243
angular_velocity_covariance:
- 0.0
- 0.0
- 0.0
- 0.0
- 0.0
- 0.0
- 0.0
- 0.0
- 0.0
linear_acceleration:
  x: -0.14833985269069672
  y: -0.12441406399011612
  z: 9.94834041595459
linear_acceleration_covariance:
- 100.0
- 0.0
- 0.0
- 0.0
- 100.0
- 0.0
- 0.0
- 0.0
- 100.0
---
header:
  stamp:
    sec: 1760270669
    nanosec: 86577207
  frame_id: imu_link
orientation:
  x: 0.0
  y: 0.0
  z: 0.0
  w: 0.0
orientation_covariance:
- -1.0
- 0.0
- 0.0
- 0.0
- 0.0
- 0.0
- 0.0
- 0.0
- 0.0
angular_velocity:
  x: 0.0021305298432707787
  y: -0.0031957945320755243
  z: -0.0010652649216353893
angular_velocity_covariance:
- 0.0
- 0.0
- 0.0
- 0.0
- 0.0
- 0.0
- 0.0
- 0.0
- 0.0
linear_acceleration:
  x: -0.095703125
  y: -0.095703125
  z: 9.96030330657959
linear_acceleration_covariance:
- 100.0
- 0.0
- 0.0
- 0.0
- 100.0
- 0.0
- 0.0
- 0.0
- 100.0
---
header:
  stamp:
    sec: 1760270669
    nanosec: 108575207
  frame_id: imu_link
orientation:
  x: 0.0
  y: 0.0
  z: 0.0
  w: 0.0
orientation_covariance:
- -1.0
- 0.0
- 0.0
- 0.0
- 0.0
- 0.0
- 0.0
- 0.0
- 0.0
angular_velocity:
  x: 0.004261059686541557
  y: -0.008522119373083115
  z: -0.004261059686541557
angular_velocity_covariance:
- 0.0
- 0.0
- 0.0
- 0.0
- 0.0
- 0.0
- 0.0
- 0.0
- 0.0
linear_acceleration:
  x: -0.01674804650247097
  y: -0.06938476860523224
  z: 9.945947647094727
linear_acceleration_covariance:
- 100.0
- 0.0
- 0.0
- 0.0
- 100.0
- 0.0
- 0.0
- 0.0
- 100.0
---
header:
  stamp:
    sec: 1760270669
    nanosec: 130577207
  frame_id: imu_link
orientation:
  x: 0.0
  y: 0.0
  z: 0.0
  w: 0.0
orientation_covariance:
- -1.0
- 0.0
- 0.0
- 0.0
- 0.0
- 0.0
- 0.0
- 0.0
- 0.0
angular_velocity:
  x: 0.0010652649216353893
  y: -0.0031957945320755243
  z: -0.0031957945320755243
angular_velocity_covariance:
- 0.0
- 0.0
- 0.0
- 0.0
- 0.0
- 0.0
- 0.0
- 0.0
- 0.0
linear_acceleration:
  x: -0.05263672024011612
  y: -0.07656250149011612
  z: 9.965087890625
linear_acceleration_covariance:
- 100.0
- 0.0
- 0.0
- 0.0
- 100.0
- 0.0
- 0.0
- 0.0
- 100.0
---
header:
  stamp:
    sec: 1760270669
    nanosec: 153575207
  frame_id: imu_link
orientation:
  x: 0.0
  y: 0.0
  z: 0.0
  w: 0.0
orientation_covariance:
- -1.0
- 0.0
- 0.0
- 0.0
- 0.0
- 0.0
- 0.0
- 0.0
- 0.0
angular_velocity:
  x: 0.0021305298432707787
  y: -0.006391589064151049
  z: -0.0031957945320755243
angular_velocity_covariance:
- 0.0
- 0.0
- 0.0
- 0.0
- 0.0
- 0.0
- 0.0
- 0.0
- 0.0
linear_acceleration:
  x: -0.14594726264476776
  y: -0.131591796875
  z: 9.955517768859863
linear_acceleration_covariance:
- 100.0
- 0.0
- 0.0
- 0.0
- 100.0
- 0.0
- 0.0
- 0.0
- 100.0
---
header:
  stamp:
    sec: 1760270669
    nanosec: 176577207
  frame_id: imu_link
orientation:
  x: 0.0
  y: 0.0
  z: 0.0
  w: 0.0
orientation_covariance:
- -1.0
- 0.0
- 0.0
- 0.0
- 0.0
- 0.0
- 0.0
- 0.0
- 0.0
angular_velocity:
  x: 0.0021305298432707787
  y: -0.006391589064151049
  z: -0.0021305298432707787
angular_velocity_covariance:
- 0.0
- 0.0
- 0.0
- 0.0
- 0.0
- 0.0
- 0.0
- 0.0
- 0.0
linear_acceleration:
  x: -0.131591796875
  y: -0.11723633110523224
  z: 9.97226619720459
linear_acceleration_covariance:
- 100.0
- 0.0
- 0.0
- 0.0
- 100.0
- 0.0
- 0.0
- 0.0
- 100.0
---
header:
  stamp:
    sec: 1760270669
    nanosec: 198575207
  frame_id: imu_link
orientation:
  x: 0.0
  y: 0.0
  z: 0.0
  w: 0.0
orientation_covariance:
- -1.0
- 0.0
- 0.0
- 0.0
- 0.0
- 0.0
- 0.0
- 0.0
- 0.0
angular_velocity:
  x: 0.0010652649216353893
  y: -0.005326324608176947
  z: -0.0021305298432707787
angular_velocity_covariance:
- 0.0
- 0.0
- 0.0
- 0.0
- 0.0
- 0.0
- 0.0
- 0.0
- 0.0
linear_acceleration:
  x: -0.06459961086511612
  y: -0.10048828274011612
  z: 9.96030330657959
linear_acceleration_covariance:
- 100.0
- 0.0
- 0.0
- 0.0
- 100.0
- 0.0
- 0.0
- 0.0
- 100.0
---
header:
  stamp:
    sec: 1760270669
    nanosec: 220577207
  frame_id: imu_link
orientation:
  x: 0.0
  y: 0.0
  z: 0.0
  w: 0.0
orientation_covariance:
- -1.0
- 0.0
- 0.0
- 0.0
- 0.0
- 0.0
- 0.0
- 0.0
- 0.0
angular_velocity:
  x: -0.0031957945320755243
  y: -0.006391589064151049
  z: -0.0031957945320755243
angular_velocity_covariance:
- 0.0
- 0.0
- 0.0
- 0.0
- 0.0
- 0.0
- 0.0
- 0.0
- 0.0
linear_acceleration:
  x: -0.04306640848517418
  y: -0.06699218600988388
  z: 9.955517768859863
linear_acceleration_covariance:
- 100.0
- 0.0
- 0.0
- 0.0
- 100.0
- 0.0
- 0.0
- 0.0
- 100.0
---
header:
  stamp:
    sec: 1760270669
    nanosec: 242575207
  frame_id: imu_link
orientation:
  x: 0.0
  y: 0.0
  z: 0.0
  w: 0.0
orientation_covariance:
- -1.0
- 0.0
- 0.0
- 0.0
- 0.0
- 0.0
- 0.0
- 0.0
- 0.0
angular_velocity:
  x: 0.0031957945320755243
  y: -0.005326324608176947
  z: -0.0021305298432707787
angular_velocity_covariance:
- 0.0
- 0.0
- 0.0
- 0.0
- 0.0
- 0.0
- 0.0
- 0.0
- 0.0
linear_acceleration:
  x: -0.08613281697034836
  y: -0.11484375596046448
  z: 9.97705078125
linear_acceleration_covariance:
- 100.0
- 0.0
- 0.0
- 0.0
- 100.0
- 0.0
- 0.0
- 0.0
- 100.0
---
header:
  stamp:
    sec: 1760270669
    nanosec: 265577207
  frame_id: imu_link
orientation:
  x: 0.0
  y: 0.0
  z: 0.0
  w: 0.0
orientation_covariance:
- -1.0
- 0.0
- 0.0
- 0.0
- 0.0
- 0.0
- 0.0
- 0.0
- 0.0
angular_velocity:
  x: 0.0
  y: -0.008522119373083115
  z: -0.0010652649216353893
angular_velocity_covariance:
- 0.0
- 0.0
- 0.0
- 0.0
- 0.0
- 0.0
- 0.0
- 0.0
- 0.0
linear_acceleration:
  x: -0.13637696206569672
  y: -0.131591796875
  z: 9.97226619720459
linear_acceleration_covariance:
- 100.0
- 0.0
- 0.0
- 0.0
- 100.0
- 0.0
- 0.0
- 0.0
- 100.0
---
header:
  stamp:
    sec: 1760270669
    nanosec: 287575207
  frame_id: imu_link
orientation:
  x: 0.0
  y: 0.0
  z: 0.0
  w: 0.0
orientation_covariance:
- -1.0
- 0.0
- 0.0
- 0.0
- 0.0
- 0.0
- 0.0
- 0.0
- 0.0
angular_velocity:
  x: 0.0010652649216353893
  y: -0.004261059686541557
  z: -0.0031957945320755243
angular_velocity_covariance:
- 0.0
- 0.0
- 0.0
- 0.0
- 0.0
- 0.0
- 0.0
- 0.0
- 0.0
linear_acceleration:
  x: -0.09809570759534836
  y: -0.12680664658546448
  z: 9.945947647094727
linear_acceleration_covariance:
- 100.0
- 0.0
- 0.0
- 0.0
- 100.0
- 0.0
- 0.0
- 0.0
- 100.0
---
header:
  stamp:
    sec: 1760270669
    nanosec: 309577207
  frame_id: imu_link
orientation:
  x: 0.0
  y: 0.0
  z: 0.0
  w: 0.0
orientation_covariance:
- -1.0
- 0.0
- 0.0
- 0.0
- 0.0
- 0.0
- 0.0
- 0.0
- 0.0
angular_velocity:
  x: 0.0010652649216353893
  y: -0.006391589064151049
  z: -0.0031957945320755243
angular_velocity_covariance:
- 0.0
- 0.0
- 0.0
- 0.0
- 0.0
- 0.0
- 0.0
- 0.0
- 0.0
linear_acceleration:
  x: -0.06459961086511612
  y: -0.09331054985523224
  z: 9.950732231140137
linear_acceleration_covariance:
- 100.0
- 0.0
- 0.0
- 0.0
- 100.0
- 0.0
- 0.0
- 0.0
- 100.0
---
header:
  stamp:
    sec: 1760270669
    nanosec: 331575207
  frame_id: imu_link
orientation:
  x: 0.0
  y: 0.0
  z: 0.0
  w: 0.0
orientation_covariance:
- -1.0
- 0.0
- 0.0
- 0.0
- 0.0
- 0.0
- 0.0
- 0.0
- 0.0
angular_velocity:
  x: -0.0010652649216353893
  y: -0.005326324608176947
  z: -0.0021305298432707787
angular_velocity_covariance:
- 0.0
- 0.0
- 0.0
- 0.0
- 0.0
- 0.0
- 0.0
- 0.0
- 0.0
linear_acceleration:
  x: -0.03828125074505806
  y: -0.06938476860523224
  z: 9.965087890625
linear_acceleration_covariance:
- 100.0
- 0.0
- 0.0
- 0.0
- 100.0
- 0.0
- 0.0
- 0.0
- 100.0
---
header:
  stamp:
    sec: 1760270669
    nanosec: 353577207
  frame_id: imu_link
orientation:
  x: 0.0
  y: 0.0
  z: 0.0
  w: 0.0
orientation_covariance:
- -1.0
- 0.0
- 0.0
- 0.0
- 0.0
- 0.0
- 0.0
- 0.0
- 0.0
angular_velocity:
  x: 0.0031957945320755243
  y: -0.006391589064151049
  z: -0.0021305298432707787
angular_velocity_covariance:
- 0.0
- 0.0
- 0.0
- 0.0
- 0.0
- 0.0
- 0.0
- 0.0
- 0.0
linear_acceleration:
  x: -0.12202148884534836
  y: -0.11723633110523224
  z: 9.97226619720459
linear_acceleration_covariance:
- 100.0
- 0.0
- 0.0
- 0.0
- 100.0
- 0.0
- 0.0
- 0.0
- 100.0
---
header:
  stamp:
    sec: 1760270669
    nanosec: 375575207
  frame_id: imu_link
orientation:
  x: 0.0
  y: 0.0
  z: 0.0
  w: 0.0
orientation_covariance:
- -1.0
- 0.0
- 0.0
- 0.0
- 0.0
- 0.0
- 0.0
- 0.0
- 0.0
angular_velocity:
  x: -0.0010652649216353893
  y: -0.005326324608176947
  z: -0.005326324608176947
angular_velocity_covariance:
- 0.0
- 0.0
- 0.0
- 0.0
- 0.0
- 0.0
- 0.0
- 0.0
- 0.0
linear_acceleration:
  x: -0.15791015326976776
  y: -0.11962890625
  z: 9.96030330657959
linear_acceleration_covariance:
- 100.0
- 0.0
- 0.0
- 0.0
- 100.0
- 0.0
- 0.0
- 0.0
- 100.0
---
header:
  stamp:
    sec: 1760270669
    nanosec: 398577207
  frame_id: imu_link
orientation:
  x: 0.0
  y: 0.0
  z: 0.0
  w: 0.0
orientation_covariance:
- -1.0
- 0.0
- 0.0
- 0.0
- 0.0
- 0.0
- 0.0
- 0.0
- 0.0
angular_velocity:
  x: 0.0
  y: -0.005326324608176947
  z: -0.0021305298432707787
angular_velocity_covariance:
- 0.0
- 0.0
- 0.0
- 0.0
- 0.0
- 0.0
- 0.0
- 0.0
- 0.0
linear_acceleration:
  x: -0.07416992634534836
  y: -0.09809570759534836
  z: 9.962695121765137
linear_acceleration_covariance:
- 100.0
- 0.0
- 0.0
- 0.0
- 100.0
- 0.0
- 0.0
- 0.0
- 100.0
---
header:
  stamp:
    sec: 1760270669
    nanosec: 420575207
  frame_id: imu_link
orientation:
  x: 0.0
  y: 0.0
  z: 0.0
  w: 0.0
orientation_covariance:
- -1.0
- 0.0
- 0.0
- 0.0
- 0.0
- 0.0
- 0.0
- 0.0
- 0.0
angular_velocity:
  x: 0.0031957945320755243
  y: -0.006391589064151049
  z: -0.0031957945320755243
angular_velocity_covariance:
- 0.0
- 0.0
- 0.0
- 0.0
- 0.0
- 0.0
- 0.0
- 0.0
- 0.0
linear_acceleration:
  x: -0.03828125074505806
  y: -0.06459961086511612
  z: 9.965087890625
linear_acceleration_covariance:
- 100.0
- 0.0
- 0.0
- 0.0
- 100.0
- 0.0
- 0.0
- 0.0
- 100.0
---
header:
  stamp:
    sec: 1760270669
    nanosec: 442577207
  frame_id: imu_link
orientation:
  x: 0.0
  y: 0.0
  z: 0.0
  w: 0.0
orientation_covariance:
- -1.0
- 0.0
- 0.0
- 0.0
- 0.0
- 0.0
- 0.0
- 0.0
- 0.0
angular_velocity:
  x: -0.0010652649216353893
  y: -0.007456853985786438
  z: -0.0021305298432707787
angular_velocity_covariance:
- 0.0
- 0.0
- 0.0
- 0.0
- 0.0
- 0.0
- 0.0
- 0.0
- 0.0
linear_acceleration:
  x: -0.07177734375
  y: -0.107666015625
  z: 9.950732231140137
linear_acceleration_covariance:
- 100.0
- 0.0
- 0.0
- 0.0
- 100.0
- 0.0
- 0.0
- 0.0
- 100.0
---
header:
  stamp:
    sec: 1760270669
    nanosec: 465575207
  frame_id: imu_link
orientation:
  x: 0.0
  y: 0.0
  z: 0.0
  w: 0.0
orientation_covariance:
- -1.0
- 0.0
- 0.0
- 0.0
- 0.0
- 0.0
- 0.0
- 0.0
- 0.0
angular_velocity:
  x: -0.0010652649216353893
  y: -0.005326324608176947
  z: -0.004261059686541557
angular_velocity_covariance:
- 0.0
- 0.0
- 0.0
- 0.0
- 0.0
- 0.0
- 0.0
- 0.0
- 0.0
linear_acceleration:
  x: -0.14594726264476776
  y: -0.12441406399011612
  z: 9.969873428344727
linear_acceleration_covariance:
- 100.0
- 0.0
- 0.0
- 0.0
- 100.0
- 0.0
- 0.0
- 0.0
- 100.0
---
header:
  stamp:
    sec: 1760270669
    nanosec: 488577207
  frame_id: imu_link
orientation:
  x: 0.0
  y: 0.0
  z: 0.0
  w: 0.0
orientation_covariance:
- -1.0
- 0.0
- 0.0
- 0.0
- 0.0
- 0.0
- 0.0
- 0.0
- 0.0
angular_velocity:
  x: 0.0
  y: -0.006391589064151049
  z: 0.0
angular_velocity_covariance:
- 0.0
- 0.0
- 0.0
- 0.0
- 0.0
- 0.0
- 0.0
- 0.0
- 0.0
linear_acceleration:
  x: -0.10527344048023224
  y: -0.11005859822034836
  z: 9.965087890625
linear_acceleration_covariance:
- 100.0
- 0.0
- 0.0
- 0.0
- 100.0
- 0.0
- 0.0
- 0.0
- 100.0
---
header:
  stamp:
    sec: 1760270669
    nanosec: 510575207
  frame_id: imu_link
orientation:
  x: 0.0
  y: 0.0
  z: 0.0
  w: 0.0
orientation_covariance:
- -1.0
- 0.0
- 0.0
- 0.0
- 0.0
- 0.0
- 0.0
- 0.0
- 0.0
angular_velocity:
  x: 0.0021305298432707787
  y: -0.005326324608176947
  z: -0.0021305298432707787
angular_velocity_covariance:
- 0.0
- 0.0
- 0.0
- 0.0
- 0.0
- 0.0
- 0.0
- 0.0
- 0.0
linear_acceleration:
  x: -0.05742187798023224
  y: -0.09331054985523224
  z: 9.955517768859863
linear_acceleration_covariance:
- 100.0
- 0.0
- 0.0
- 0.0
- 100.0
- 0.0
- 0.0
- 0.0
- 100.0
---
header:
  stamp:
    sec: 1760270669
    nanosec: 532577207
  frame_id: imu_link
orientation:
  x: 0.0
  y: 0.0
  z: 0.0
  w: 0.0
orientation_covariance:
- -1.0
- 0.0
- 0.0
- 0.0
- 0.0
- 0.0
- 0.0
- 0.0
- 0.0
angular_velocity:
  x: 0.0021305298432707787
  y: -0.005326324608176947
  z: 0.0
angular_velocity_covariance:
- 0.0
- 0.0
- 0.0
- 0.0
- 0.0
- 0.0
- 0.0
- 0.0
- 0.0
linear_acceleration:
  x: -0.05024414137005806
  y: -0.09331054985523224
  z: 9.97226619720459
linear_acceleration_covariance:
- 100.0
- 0.0
- 0.0
- 0.0
- 100.0
- 0.0
- 0.0
- 0.0
- 100.0
---
header:
  stamp:
    sec: 1760270669
    nanosec: 554575207
  frame_id: imu_link
orientation:
  x: 0.0
  y: 0.0
  z: 0.0
  w: 0.0
orientation_covariance:
- -1.0
- 0.0
- 0.0
- 0.0
- 0.0
- 0.0
- 0.0
- 0.0
- 0.0
angular_velocity:
  x: 0.0021305298432707787
  y: -0.007456853985786438
  z: -0.0010652649216353893
angular_velocity_covariance:
- 0.0
- 0.0
- 0.0
- 0.0
- 0.0
- 0.0
- 0.0
- 0.0
- 0.0
linear_acceleration:
  x: -0.09809570759534836
  y: -0.10048828274011612
  z: 9.96030330657959
linear_acceleration_covariance:
- 100.0
- 0.0
- 0.0
- 0.0
- 100.0
- 0.0
- 0.0
- 0.0
- 100.0
---
header:
  stamp:
    sec: 1760270669
    nanosec: 576577207
  frame_id: imu_link
orientation:
  x: 0.0
  y: 0.0
  z: 0.0
  w: 0.0
orientation_covariance:
- -1.0
- 0.0
- 0.0
- 0.0
- 0.0
- 0.0
- 0.0
- 0.0
- 0.0
angular_velocity:
  x: -0.0021305298432707787
  y: -0.006391589064151049
  z: -0.006391589064151049
angular_velocity_covariance:
- 0.0
- 0.0
- 0.0
- 0.0
- 0.0
- 0.0
- 0.0
- 0.0
- 0.0
linear_acceleration:
  x: -0.11723633110523224
  y: -0.11245117336511612
  z: 9.953125
linear_acceleration_covariance:
- 100.0
- 0.0
- 0.0
- 0.0
- 100.0
- 0.0
- 0.0
- 0.0
- 100.0
---
header:
  stamp:
    sec: 1760270669
    nanosec: 598575207
  frame_id: imu_link
orientation:
  x: 0.0
  y: 0.0
  z: 0.0
  w: 0.0
orientation_covariance:
- -1.0
- 0.0
- 0.0
- 0.0
- 0.0
- 0.0
- 0.0
- 0.0
- 0.0
angular_velocity:
  x: 0.0010652649216353893
  y: -0.004261059686541557
  z: -0.0031957945320755243
angular_velocity_covariance:
- 0.0
- 0.0
- 0.0
- 0.0
- 0.0
- 0.0
- 0.0
- 0.0
- 0.0
linear_acceleration:
  x: -0.11245117336511612
  y: -0.11245117336511612
  z: 9.986620903015137
linear_acceleration_covariance:
- 100.0
- 0.0
- 0.0
- 0.0
- 100.0
- 0.0
- 0.0
- 0.0
- 100.0
---
header:
  stamp:
    sec: 1760270669
    nanosec: 620577207
  frame_id: imu_link
orientation:
  x: 0.0
  y: 0.0
  z: 0.0
  w: 0.0
orientation_covariance:
- -1.0
- 0.0
- 0.0
- 0.0
- 0.0
- 0.0
- 0.0
- 0.0
- 0.0
angular_velocity:
  x: 0.0021305298432707787
  y: -0.006391589064151049
  z: -0.004261059686541557
angular_velocity_covariance:
- 0.0
- 0.0
- 0.0
- 0.0
- 0.0
- 0.0
- 0.0
- 0.0
- 0.0
linear_acceleration:
  x: -0.06220703199505806
  y: -0.07895507663488388
  z: 9.962695121765137
linear_acceleration_covariance:
- 100.0
- 0.0
- 0.0
- 0.0
- 100.0
- 0.0
- 0.0
- 0.0
- 100.0
---
header:
  stamp:
    sec: 1760270669
    nanosec: 642575207
  frame_id: imu_link
orientation:
  x: 0.0
  y: 0.0
  z: 0.0
  w: 0.0
orientation_covariance:
- -1.0
- 0.0
- 0.0
- 0.0
- 0.0
- 0.0
- 0.0
- 0.0
- 0.0
angular_velocity:
  x: 0.0
  y: -0.005326324608176947
  z: -0.0021305298432707787
angular_velocity_covariance:
- 0.0
- 0.0
- 0.0
- 0.0
- 0.0
- 0.0
- 0.0
- 0.0
- 0.0
linear_acceleration:
  x: -0.06459961086511612
  y: -0.08852539211511612
  z: 9.965087890625
linear_acceleration_covariance:
- 100.0
- 0.0
- 0.0
- 0.0
- 100.0
- 0.0
- 0.0
- 0.0
- 100.0
---
header:
  stamp:
    sec: 1760270669
    nanosec: 664577207
  frame_id: imu_link
orientation:
  x: 0.0
  y: 0.0
  z: 0.0
  w: 0.0
orientation_covariance:
- -1.0
- 0.0
- 0.0
- 0.0
- 0.0
- 0.0
- 0.0
- 0.0
- 0.0
angular_velocity:
  x: 0.0
  y: -0.007456853985786438
  z: -0.0031957945320755243
angular_velocity_covariance:
- 0.0
- 0.0
- 0.0
- 0.0
- 0.0
- 0.0
- 0.0
- 0.0
- 0.0
linear_acceleration:
  x: -0.10527344048023224
  y: -0.11245117336511612
  z: 9.957910537719727
linear_acceleration_covariance:
- 100.0
- 0.0
- 0.0
- 0.0
- 100.0
- 0.0
- 0.0
- 0.0
- 100.0
---
header:
  stamp:
    sec: 1760270669
    nanosec: 686575207
  frame_id: imu_link
orientation:
  x: 0.0
  y: 0.0
  z: 0.0
  w: 0.0
orientation_covariance:
- -1.0
- 0.0
- 0.0
- 0.0
- 0.0
- 0.0
- 0.0
- 0.0
- 0.0
angular_velocity:
  x: 0.0
  y: -0.0031957945320755243
  z: -0.0031957945320755243
angular_velocity_covariance:
- 0.0
- 0.0
- 0.0
- 0.0
- 0.0
- 0.0
- 0.0
- 0.0
- 0.0
linear_acceleration:
  x: -0.12202148884534836
  y: -0.11005859822034836
  z: 9.97705078125
linear_acceleration_covariance:
- 100.0
- 0.0
- 0.0
- 0.0
- 100.0
- 0.0
- 0.0
- 0.0
- 100.0
---
header:
  stamp:
    sec: 1760270669
    nanosec: 709577207
  frame_id: imu_link
orientation:
  x: 0.0
  y: 0.0
  z: 0.0
  w: 0.0
orientation_covariance:
- -1.0
- 0.0
- 0.0
- 0.0
- 0.0
- 0.0
- 0.0
- 0.0
- 0.0
angular_velocity:
  x: 0.0
  y: -0.006391589064151049
  z: -0.0010652649216353893
angular_velocity_covariance:
- 0.0
- 0.0
- 0.0
- 0.0
- 0.0
- 0.0
- 0.0
- 0.0
- 0.0
linear_acceleration:
  x: -0.09809570759534836
  y: -0.11245117336511612
  z: 9.962695121765137
linear_acceleration_covariance:
- 100.0
- 0.0
- 0.0
- 0.0
- 100.0
- 0.0
- 0.0
- 0.0
- 100.0
---
header:
  stamp:
    sec: 1760270669
    nanosec: 732575207
  frame_id: imu_link
orientation:
  x: 0.0
  y: 0.0
  z: 0.0
  w: 0.0
orientation_covariance:
- -1.0
- 0.0
- 0.0
- 0.0
- 0.0
- 0.0
- 0.0
- 0.0
- 0.0
angular_velocity:
  x: -0.0021305298432707787
  y: -0.006391589064151049
  z: -0.0031957945320755243
angular_velocity_covariance:
- 0.0
- 0.0
- 0.0
- 0.0
- 0.0
- 0.0
- 0.0
- 0.0
- 0.0
linear_acceleration:
  x: -0.07416992634534836
  y: -0.10288085788488388
  z: 9.967480659484863
linear_acceleration_covariance:
- 100.0
- 0.0
- 0.0
- 0.0
- 100.0
- 0.0
- 0.0
- 0.0
- 100.0
---
header:
  stamp:
    sec: 1760270669
    nanosec: 754577207
  frame_id: imu_link
orientation:
  x: 0.0
  y: 0.0
  z: 0.0
  w: 0.0
orientation_covariance:
- -1.0
- 0.0
- 0.0
- 0.0
- 0.0
- 0.0
- 0.0
- 0.0
- 0.0
angular_velocity:
  x: 0.0
  y: -0.006391589064151049
  z: -0.0031957945320755243
angular_velocity_covariance:
- 0.0
- 0.0
- 0.0
- 0.0
- 0.0
- 0.0
- 0.0
- 0.0
- 0.0
linear_acceleration:
  x: -0.07177734375
  y: -0.10048828274011612
  z: 9.950732231140137
linear_acceleration_covariance:
- 100.0
- 0.0
- 0.0
- 0.0
- 100.0
- 0.0
- 0.0
- 0.0
- 100.0
---
header:
  stamp:
    sec: 1760270669
    nanosec: 776575207
  frame_id: imu_link
orientation:
  x: 0.0
  y: 0.0
  z: 0.0
  w: 0.0
orientation_covariance:
- -1.0
- 0.0
- 0.0
- 0.0
- 0.0
- 0.0
- 0.0
- 0.0
- 0.0
angular_velocity:
  x: 0.0021305298432707787
  y: -0.009587383829057217
  z: -0.0031957945320755243
angular_velocity_covariance:
- 0.0
- 0.0
- 0.0
- 0.0
- 0.0
- 0.0
- 0.0
- 0.0
- 0.0
linear_acceleration:
  x: -0.10048828274011612
  y: -0.11245117336511612
  z: 9.962695121765137
linear_acceleration_covariance:
- 100.0
- 0.0
- 0.0
- 0.0
- 100.0
- 0.0
- 0.0
- 0.0
- 100.0
---
header:
  stamp:
    sec: 1760270669
    nanosec: 798577207
  frame_id: imu_link
orientation:
  x: 0.0
  y: 0.0
  z: 0.0
  w: 0.0
orientation_covariance:
- -1.0
- 0.0
- 0.0
- 0.0
- 0.0
- 0.0
- 0.0
- 0.0
- 0.0
angular_velocity:
  x: -0.0021305298432707787
  y: -0.006391589064151049
  z: -0.0031957945320755243
angular_velocity_covariance:
- 0.0
- 0.0
- 0.0
- 0.0
- 0.0
- 0.0
- 0.0
- 0.0
- 0.0
linear_acceleration:
  x: -0.10527344048023224
  y: -0.11484375596046448
  z: 9.97226619720459
linear_acceleration_covariance:
- 100.0
- 0.0
- 0.0
- 0.0
- 100.0
- 0.0
- 0.0
- 0.0
- 100.0
---
header:
  stamp:
    sec: 1760270669
    nanosec: 821575207
  frame_id: imu_link
orientation:
  x: 0.0
  y: 0.0
  z: 0.0
  w: 0.0
orientation_covariance:
- -1.0
- 0.0
- 0.0
- 0.0
- 0.0
- 0.0
- 0.0
- 0.0
- 0.0
angular_velocity:
  x: 0.0010652649216353893
  y: -0.004261059686541557
  z: -0.0021305298432707787
angular_velocity_covariance:
- 0.0
- 0.0
- 0.0
- 0.0
- 0.0
- 0.0
- 0.0
- 0.0
- 0.0
linear_acceleration:
  x: -0.07895507663488388
  y: -0.09809570759534836
  z: 9.981836318969727
linear_acceleration_covariance:
- 100.0
- 0.0
- 0.0
- 0.0
- 100.0
- 0.0
- 0.0
- 0.0
- 100.0
---
header:
  stamp:
    sec: 1760270669
    nanosec: 844577207
  frame_id: imu_link
orientation:
  x: 0.0
  y: 0.0
  z: 0.0
  w: 0.0
orientation_covariance:
- -1.0
- 0.0
- 0.0
- 0.0
- 0.0
- 0.0
- 0.0
- 0.0
- 0.0
angular_velocity:
  x: -0.0010652649216353893
  y: -0.0031957945320755243
  z: -0.0031957945320755243
angular_velocity_covariance:
- 0.0
- 0.0
- 0.0
- 0.0
- 0.0
- 0.0
- 0.0
- 0.0
- 0.0
linear_acceleration:
  x: -0.06699218600988388
  y: -0.083740234375
  z: 9.962695121765137
linear_acceleration_covariance:
- 100.0
- 0.0
- 0.0
- 0.0
- 100.0
- 0.0
- 0.0
- 0.0
- 100.0
---
header:
  stamp:
    sec: 1760270669
    nanosec: 867575207
  frame_id: imu_link
orientation:
  x: 0.0
  y: 0.0
  z: 0.0
  w: 0.0
orientation_covariance:
- -1.0
- 0.0
- 0.0
- 0.0
- 0.0
- 0.0
- 0.0
- 0.0
- 0.0
angular_velocity:
  x: 0.0010652649216353893
  y: -0.008522119373083115
  z: -0.0021305298432707787
angular_velocity_covariance:
- 0.0
- 0.0
- 0.0
- 0.0
- 0.0
- 0.0
- 0.0
- 0.0
- 0.0
linear_acceleration:
  x: -0.09091796725988388
  y: -0.095703125
  z: 9.955517768859863
linear_acceleration_covariance:
- 100.0
- 0.0
- 0.0
- 0.0
- 100.0
- 0.0
- 0.0
- 0.0
- 100.0
---
header:
  stamp:
    sec: 1760270669
    nanosec: 889577207
  frame_id: imu_link
orientation:
  x: 0.0
  y: 0.0
  z: 0.0
  w: 0.0
orientation_covariance:
- -1.0
- 0.0
- 0.0
- 0.0
- 0.0
- 0.0
- 0.0
- 0.0
- 0.0
angular_velocity:
  x: 0.0010652649216353893
  y: -0.005326324608176947
  z: -0.0031957945320755243
angular_velocity_covariance:
- 0.0
- 0.0
- 0.0
- 0.0
- 0.0
- 0.0
- 0.0
- 0.0
- 0.0
linear_acceleration:
  x: -0.11962890625
  y: -0.12202148884534836
  z: 9.967480659484863
linear_acceleration_covariance:
- 100.0
- 0.0
- 0.0
- 0.0
- 100.0
- 0.0
- 0.0
- 0.0
- 100.0
---
header:
  stamp:
    sec: 1760270669
    nanosec: 912575207
  frame_id: imu_link
orientation:
  x: 0.0
  y: 0.0
  z: 0.0
  w: 0.0
orientation_covariance:
- -1.0
- 0.0
- 0.0
- 0.0
- 0.0
- 0.0
- 0.0
- 0.0
- 0.0
angular_velocity:
  x: -0.0031957945320755243
  y: -0.007456853985786438
  z: -0.005326324608176947
angular_velocity_covariance:
- 0.0
- 0.0
- 0.0
- 0.0
- 0.0
- 0.0
- 0.0
- 0.0
- 0.0
linear_acceleration:
  x: -0.095703125
  y: -0.10527344048023224
  z: 9.981836318969727
linear_acceleration_covariance:
- 100.0
- 0.0
- 0.0
- 0.0
- 100.0
- 0.0
- 0.0
- 0.0
- 100.0
---
header:
  stamp:
    sec: 1760270669
    nanosec: 935577207
  frame_id: imu_link
orientation:
  x: 0.0
  y: 0.0
  z: 0.0
  w: 0.0
orientation_covariance:
- -1.0
- 0.0
- 0.0
- 0.0
- 0.0
- 0.0
- 0.0
- 0.0
- 0.0
angular_velocity:
  x: 0.0021305298432707787
  y: -0.005326324608176947
  z: -0.006391589064151049
angular_velocity_covariance:
- 0.0
- 0.0
- 0.0
- 0.0
- 0.0
- 0.0
- 0.0
- 0.0
- 0.0
linear_acceleration:
  x: -0.0478515625
  y: -0.09331054985523224
  z: 9.953125
linear_acceleration_covariance:
- 100.0
- 0.0
- 0.0
- 0.0
- 100.0
- 0.0
- 0.0
- 0.0
- 100.0
---
header:
  stamp:
    sec: 1760270669
    nanosec: 957575207
  frame_id: imu_link
orientation:
  x: 0.0
  y: 0.0
  z: 0.0
  w: 0.0
orientation_covariance:
- -1.0
- 0.0
- 0.0
- 0.0
- 0.0
- 0.0
- 0.0
- 0.0
- 0.0
angular_velocity:
  x: 0.0010652649216353893
  y: -0.007456853985786438
  z: -0.0021305298432707787
angular_velocity_covariance:
- 0.0
- 0.0
- 0.0
- 0.0
- 0.0
- 0.0
- 0.0
- 0.0
- 0.0
linear_acceleration:
  x: -0.07416992634534836
  y: -0.08134765923023224
  z: 9.969873428344727
linear_acceleration_covariance:
- 100.0
- 0.0
- 0.0
- 0.0
- 100.0
- 0.0
- 0.0
- 0.0
- 100.0
---
header:
  stamp:
    sec: 1760270669
    nanosec: 980577207
  frame_id: imu_link
orientation:
  x: 0.0
  y: 0.0
  z: 0.0
  w: 0.0
orientation_covariance:
- -1.0
- 0.0
- 0.0
- 0.0
- 0.0
- 0.0
- 0.0
- 0.0
- 0.0
angular_velocity:
  x: 0.0
  y: -0.006391589064151049
  z: -0.004261059686541557
angular_velocity_covariance:
- 0.0
- 0.0
- 0.0
- 0.0
- 0.0
- 0.0
- 0.0
- 0.0
- 0.0
linear_acceleration:
  x: -0.10288085788488388
  y: -0.11723633110523224
  z: 9.97226619720459
linear_acceleration_covariance:
- 100.0
- 0.0
- 0.0
- 0.0
- 100.0
- 0.0
- 0.0
- 0.0
- 100.0
---
header:
  stamp:
    sec: 1760270670
    nanosec: 2575207
  frame_id: imu_link
orientation:
  x: 0.0
  y: 0.0
  z: 0.0
  w: 0.0
orientation_covariance:
- -1.0
- 0.0
- 0.0
- 0.0
- 0.0
- 0.0
- 0.0
- 0.0
- 0.0
angular_velocity:
  x: 0.0
  y: -0.006391589064151049
  z: -0.0021305298432707787
angular_velocity_covariance:
- 0.0
- 0.0
- 0.0
- 0.0
- 0.0
- 0.0
- 0.0
- 0.0
- 0.0
linear_acceleration:
  x: -0.11723633110523224
  y: -0.10527344048023224
  z: 9.953125
linear_acceleration_covariance:
- 100.0
- 0.0
- 0.0
- 0.0
- 100.0
- 0.0
- 0.0
- 0.0
- 100.0
---
header:
  stamp:
    sec: 1760270670
    nanosec: 24577207
  frame_id: imu_link
orientation:
  x: 0.0
  y: 0.0
  z: 0.0
  w: 0.0
orientation_covariance:
- -1.0
- 0.0
- 0.0
- 0.0
- 0.0
- 0.0
- 0.0
- 0.0
- 0.0
angular_velocity:
  x: 0.0021305298432707787
  y: -0.004261059686541557
  z: -0.004261059686541557
angular_velocity_covariance:
- 0.0
- 0.0
- 0.0
- 0.0
- 0.0
- 0.0
- 0.0
- 0.0
- 0.0
linear_acceleration:
  x: -0.10048828274011612
  y: -0.10527344048023224
  z: 9.993799209594727
linear_acceleration_covariance:
- 100.0
- 0.0
- 0.0
- 0.0
- 100.0
- 0.0
- 0.0
- 0.0
- 100.0
---
header:
  stamp:
    sec: 1760270670
    nanosec: 47575207
  frame_id: imu_link
orientation:
  x: 0.0
  y: 0.0
  z: 0.0
  w: 0.0
orientation_covariance:
- -1.0
- 0.0
- 0.0
- 0.0
- 0.0
- 0.0
- 0.0
- 0.0
- 0.0
angular_velocity:
  x: 0.0
  y: -0.004261059686541557
  z: -0.0010652649216353893
angular_velocity_covariance:
- 0.0
- 0.0
- 0.0
- 0.0
- 0.0
- 0.0
- 0.0
- 0.0
- 0.0
linear_acceleration:
  x: -0.06699218600988388
  y: -0.08852539211511612
  z: 9.955517768859863
linear_acceleration_covariance:
- 100.0
- 0.0
- 0.0
- 0.0
- 100.0
- 0.0
- 0.0
- 0.0
- 100.0
---
header:
  stamp:
    sec: 1760270670
    nanosec: 69577207
  frame_id: imu_link
orientation:
  x: 0.0
  y: 0.0
  z: 0.0
  w: 0.0
orientation_covariance:
- -1.0
- 0.0
- 0.0
- 0.0
- 0.0
- 0.0
- 0.0
- 0.0
- 0.0
angular_velocity:
  x: 0.0
  y: -0.006391589064151049
  z: -0.004261059686541557
angular_velocity_covariance:
- 0.0
- 0.0
- 0.0
- 0.0
- 0.0
- 0.0
- 0.0
- 0.0
- 0.0
linear_acceleration:
  x: -0.10527344048023224
  y: -0.10288085788488388
  z: 9.953125
linear_acceleration_covariance:
- 100.0
- 0.0
- 0.0
- 0.0
- 100.0
- 0.0
- 0.0
- 0.0
- 100.0
---
header:
  stamp:
    sec: 1760270670
    nanosec: 92575207
  frame_id: imu_link
orientation:
  x: 0.0
  y: 0.0
  z: 0.0
  w: 0.0
orientation_covariance:
- -1.0
- 0.0
- 0.0
- 0.0
- 0.0
- 0.0
- 0.0
- 0.0
- 0.0
angular_velocity:
  x: 0.0010652649216353893
  y: -0.007456853985786438
  z: -0.004261059686541557
angular_velocity_covariance:
- 0.0
- 0.0
- 0.0
- 0.0
- 0.0
- 0.0
- 0.0
- 0.0
- 0.0
linear_acceleration:
  x: -0.09809570759534836
  y: -0.11005859822034836
  z: 9.955517768859863
linear_acceleration_covariance:
- 100.0
- 0.0
- 0.0
- 0.0
- 100.0
- 0.0
- 0.0
- 0.0
- 100.0
---
header:
  stamp:
    sec: 1760270670
    nanosec: 115577207
  frame_id: imu_link
orientation:
  x: 0.0
  y: 0.0
  z: 0.0
  w: 0.0
orientation_covariance:
- -1.0
- 0.0
- 0.0
- 0.0
- 0.0
- 0.0
- 0.0
- 0.0
- 0.0
angular_velocity:
  x: 0.0010652649216353893
  y: -0.0031957945320755243
  z: -0.0031957945320755243
angular_velocity_covariance:
- 0.0
- 0.0
- 0.0
- 0.0
- 0.0
- 0.0
- 0.0
- 0.0
- 0.0
linear_acceleration:
  x: -0.09091796725988388
  y: -0.11723633110523224
  z: 9.969873428344727
linear_acceleration_covariance:
- 100.0
- 0.0
- 0.0
- 0.0
- 100.0
- 0.0
- 0.0
- 0.0
- 100.0
---
header:
  stamp:
    sec: 1760270670
    nanosec: 137575207
  frame_id: imu_link
orientation:
  x: 0.0
  y: 0.0
  z: 0.0
  w: 0.0
orientation_covariance:
- -1.0
- 0.0
- 0.0
- 0.0
- 0.0
- 0.0
- 0.0
- 0.0
- 0.0
angular_velocity:
  x: 0.0
  y: -0.004261059686541557
  z: -0.0031957945320755243
angular_velocity_covariance:
- 0.0
- 0.0
- 0.0
- 0.0
- 0.0
- 0.0
- 0.0
- 0.0
- 0.0
linear_acceleration:
  x: -0.09331054985523224
  y: -0.107666015625
  z: 9.957910537719727
linear_acceleration_covariance:
- 100.0
- 0.0
- 0.0
- 0.0
- 100.0
- 0.0
- 0.0
- 0.0
- 100.0
---
header:
  stamp:
    sec: 1760270670
    nanosec: 159577207
  frame_id: imu_link
orientation:
  x: 0.0
  y: 0.0
  z: 0.0
  w: 0.0
orientation_covariance:
- -1.0
- 0.0
- 0.0
- 0.0
- 0.0
- 0.0
- 0.0
- 0.0
- 0.0
angular_velocity:
  x: -0.0010652649216353893
  y: -0.005326324608176947
  z: -0.004261059686541557
angular_velocity_covariance:
- 0.0
- 0.0
- 0.0
- 0.0
- 0.0
- 0.0
- 0.0
- 0.0
- 0.0
linear_acceleration:
  x: -0.08852539211511612
  y: -0.09809570759534836
  z: 9.97226619720459
linear_acceleration_covariance:
- 100.0
- 0.0
- 0.0
- 0.0
- 100.0
- 0.0
- 0.0
- 0.0
- 100.0
---
header:
  stamp:
    sec: 1760270670
    nanosec: 182575207
  frame_id: imu_link
orientation:
  x: 0.0
  y: 0.0
  z: 0.0
  w: 0.0
orientation_covariance:
- -1.0
- 0.0
- 0.0
- 0.0
- 0.0
- 0.0
- 0.0
- 0.0
- 0.0
angular_velocity:
  x: 0.0010652649216353893
  y: -0.005326324608176947
  z: -0.0021305298432707787
angular_velocity_covariance:
- 0.0
- 0.0
- 0.0
- 0.0
- 0.0
- 0.0
- 0.0
- 0.0
- 0.0
linear_acceleration:
  x: -0.09331054985523224
  y: -0.10527344048023224
  z: 9.969873428344727
linear_acceleration_covariance:
- 100.0
- 0.0
- 0.0
- 0.0
- 100.0
- 0.0
- 0.0
- 0.0
- 100.0
---
header:
  stamp:
    sec: 1760270670
    nanosec: 205577207
  frame_id: imu_link
orientation:
  x: 0.0
  y: 0.0
  z: 0.0
  w: 0.0
orientation_covariance:
- -1.0
- 0.0
- 0.0
- 0.0
- 0.0
- 0.0
- 0.0
- 0.0
- 0.0
angular_velocity:
  x: 0.0010652649216353893
  y: -0.0031957945320755243
  z: -0.0031957945320755243
angular_velocity_covariance:
- 0.0
- 0.0
- 0.0
- 0.0
- 0.0
- 0.0
- 0.0
- 0.0
- 0.0
linear_acceleration:
  x: -0.107666015625
  y: -0.107666015625
  z: 9.957910537719727
linear_acceleration_covariance:
- 100.0
- 0.0
- 0.0
- 0.0
- 100.0
- 0.0
- 0.0
- 0.0
- 100.0
---
header:
  stamp:
    sec: 1760270670
    nanosec: 228575207
  frame_id: imu_link
orientation:
  x: 0.0
  y: 0.0
  z: 0.0
  w: 0.0
orientation_covariance:
- -1.0
- 0.0
- 0.0
- 0.0
- 0.0
- 0.0
- 0.0
- 0.0
- 0.0
angular_velocity:
  x: 0.0
  y: -0.005326324608176947
  z: -0.0021305298432707787
angular_velocity_covariance:
- 0.0
- 0.0
- 0.0
- 0.0
- 0.0
- 0.0
- 0.0
- 0.0
- 0.0
linear_acceleration:
  x: -0.09091796725988388
  y: -0.10288085788488388
  z: 9.955517768859863
linear_acceleration_covariance:
- 100.0
- 0.0
- 0.0
- 0.0
- 100.0
- 0.0
- 0.0
- 0.0
- 100.0
---
header:
  stamp:
    sec: 1760270670
    nanosec: 251577207
  frame_id: imu_link
orientation:
  x: 0.0
  y: 0.0
  z: 0.0
  w: 0.0
orientation_covariance:
- -1.0
- 0.0
- 0.0
- 0.0
- 0.0
- 0.0
- 0.0
- 0.0
- 0.0
angular_velocity:
  x: 0.0021305298432707787
  y: -0.007456853985786438
  z: -0.004261059686541557
angular_velocity_covariance:
- 0.0
- 0.0
- 0.0
- 0.0
- 0.0
- 0.0
- 0.0
- 0.0
- 0.0
linear_acceleration:
  x: -0.07895507663488388
  y: -0.09091796725988388
  z: 9.96030330657959
linear_acceleration_covariance:
- 100.0
- 0.0
- 0.0
- 0.0
- 100.0
- 0.0
- 0.0
- 0.0
- 100.0
---
header:
  stamp:
    sec: 1760270670
    nanosec: 274575207
  frame_id: imu_link
orientation:
  x: 0.0
  y: 0.0
  z: 0.0
  w: 0.0
orientation_covariance:
- -1.0
- 0.0
- 0.0
- 0.0
- 0.0
- 0.0
- 0.0
- 0.0
- 0.0
angular_velocity:
  x: -0.0010652649216353893
  y: -0.0031957945320755243
  z: -0.006391589064151049
angular_velocity_covariance:
- 0.0
- 0.0
- 0.0
- 0.0
- 0.0
- 0.0
- 0.0
- 0.0
- 0.0
linear_acceleration:
  x: -0.08613281697034836
  y: -0.09809570759534836
  z: 9.965087890625
linear_acceleration_covariance:
- 100.0
- 0.0
- 0.0
- 0.0
- 100.0
- 0.0
- 0.0
- 0.0
- 100.0
---
header:
  stamp:
    sec: 1760270670
    nanosec: 296577207
  frame_id: imu_link
orientation:
  x: 0.0
  y: 0.0
  z: 0.0
  w: 0.0
orientation_covariance:
- -1.0
- 0.0
- 0.0
- 0.0
- 0.0
- 0.0
- 0.0
- 0.0
- 0.0
angular_velocity:
  x: -0.0010652649216353893
  y: -0.004261059686541557
  z: -0.004261059686541557
angular_velocity_covariance:
- 0.0
- 0.0
- 0.0
- 0.0
- 0.0
- 0.0
- 0.0
- 0.0
- 0.0
linear_acceleration:
  x: -0.10527344048023224
  y: -0.10048828274011612
  z: 9.967480659484863
linear_acceleration_covariance:
- 100.0
- 0.0
- 0.0
- 0.0
- 100.0
- 0.0
- 0.0
- 0.0
- 100.0
---
header:
  stamp:
    sec: 1760270670
    nanosec: 318575207
  frame_id: imu_link
orientation:
  x: 0.0
  y: 0.0
  z: 0.0
  w: 0.0
orientation_covariance:
- -1.0
- 0.0
- 0.0
- 0.0
- 0.0
- 0.0
- 0.0
- 0.0
- 0.0
angular_velocity:
  x: 0.0010652649216353893
  y: -0.004261059686541557
  z: -0.0021305298432707787
angular_velocity_covariance:
- 0.0
- 0.0
- 0.0
- 0.0
- 0.0
- 0.0
- 0.0
- 0.0
- 0.0
linear_acceleration:
  x: -0.095703125
  y: -0.11245117336511612
  z: 9.962695121765137
linear_acceleration_covariance:
- 100.0
- 0.0
- 0.0
- 0.0
- 100.0
- 0.0
- 0.0
- 0.0
- 100.0
---
header:
  stamp:
    sec: 1760270670
    nanosec: 340577207
  frame_id: imu_link
orientation:
  x: 0.0
  y: 0.0
  z: 0.0
  w: 0.0
orientation_covariance:
- -1.0
- 0.0
- 0.0
- 0.0
- 0.0
- 0.0
- 0.0
- 0.0
- 0.0
angular_velocity:
  x: 0.0031957945320755243
  y: -0.004261059686541557
  z: 0.0021305298432707787
angular_velocity_covariance:
- 0.0
- 0.0
- 0.0
- 0.0
- 0.0
- 0.0
- 0.0
- 0.0
- 0.0
linear_acceleration:
  x: -0.09331054985523224
  y: -0.10048828274011612
  z: 9.969873428344727
linear_acceleration_covariance:
- 100.0
- 0.0
- 0.0
- 0.0
- 100.0
- 0.0
- 0.0
- 0.0
- 100.0
---
header:
  stamp:
    sec: 1760270670
    nanosec: 363575207
  frame_id: imu_link
orientation:
  x: 0.0
  y: 0.0
  z: 0.0
  w: 0.0
orientation_covariance:
- -1.0
- 0.0
- 0.0
- 0.0
- 0.0
- 0.0
- 0.0
- 0.0
- 0.0
angular_velocity:
  x: -0.0010652649216353893
  y: -0.004261059686541557
  z: -0.0021305298432707787
angular_velocity_covariance:
- 0.0
- 0.0
- 0.0
- 0.0
- 0.0
- 0.0
- 0.0
- 0.0
- 0.0
linear_acceleration:
  x: -0.083740234375
  y: -0.095703125
  z: 9.957910537719727
linear_acceleration_covariance:
- 100.0
- 0.0
- 0.0
- 0.0
- 100.0
- 0.0
- 0.0
- 0.0
- 100.0
---
header:
  stamp:
    sec: 1760270670
    nanosec: 385577207
  frame_id: imu_link
orientation:
  x: 0.0
  y: 0.0
  z: 0.0
  w: 0.0
orientation_covariance:
- -1.0
- 0.0
- 0.0
- 0.0
- 0.0
- 0.0
- 0.0
- 0.0
- 0.0
angular_velocity:
  x: 0.0021305298432707787
  y: -0.004261059686541557
  z: -0.0021305298432707787
angular_velocity_covariance:
- 0.0
- 0.0
- 0.0
- 0.0
- 0.0
- 0.0
- 0.0
- 0.0
- 0.0
linear_acceleration:
  x: -0.09091796725988388
  y: -0.09091796725988388
  z: 9.96030330657959
linear_acceleration_covariance:
- 100.0
- 0.0
- 0.0
- 0.0
- 100.0
- 0.0
- 0.0
- 0.0
- 100.0
---
header:
  stamp:
    sec: 1760270670
    nanosec: 407575207
  frame_id: imu_link
orientation:
  x: 0.0
  y: 0.0
  z: 0.0
  w: 0.0
orientation_covariance:
- -1.0
- 0.0
- 0.0
- 0.0
- 0.0
- 0.0
- 0.0
- 0.0
- 0.0
angular_velocity:
  x: 0.0021305298432707787
  y: -0.005326324608176947
  z: -0.004261059686541557
angular_velocity_covariance:
- 0.0
- 0.0
- 0.0
- 0.0
- 0.0
- 0.0
- 0.0
- 0.0
- 0.0
linear_acceleration:
  x: -0.08613281697034836
  y: -0.12919922173023224
  z: 9.969873428344727
linear_acceleration_covariance:
- 100.0
- 0.0
- 0.0
- 0.0
- 100.0
- 0.0
- 0.0
- 0.0
- 100.0
---
header:
  stamp:
    sec: 1760270670
    nanosec: 430577207
  frame_id: imu_link
orientation:
  x: 0.0
  y: 0.0
  z: 0.0
  w: 0.0
orientation_covariance:
- -1.0
- 0.0
- 0.0
- 0.0
- 0.0
- 0.0
- 0.0
- 0.0
- 0.0
angular_velocity:
  x: 0.0021305298432707787
  y: -0.006391589064151049
  z: -0.0031957945320755243
angular_velocity_covariance:
- 0.0
- 0.0
- 0.0
- 0.0
- 0.0
- 0.0
- 0.0
- 0.0
- 0.0
linear_acceleration:
  x: -0.10527344048023224
  y: -0.10048828274011612
  z: 9.974658012390137
linear_acceleration_covariance:
- 100.0
- 0.0
- 0.0
- 0.0
- 100.0
- 0.0
- 0.0
- 0.0
- 100.0
---
header:
  stamp:
    sec: 1760270670
    nanosec: 453575207
  frame_id: imu_link
orientation:
  x: 0.0
  y: 0.0
  z: 0.0
  w: 0.0
orientation_covariance:
- -1.0
- 0.0
- 0.0
- 0.0
- 0.0
- 0.0
- 0.0
- 0.0
- 0.0
angular_velocity:
  x: 0.0031957945320755243
  y: -0.005326324608176947
  z: 0.0010652649216353893
angular_velocity_covariance:
- 0.0
- 0.0
- 0.0
- 0.0
- 0.0
- 0.0
- 0.0
- 0.0
- 0.0
linear_acceleration:
  x: -0.09331054985523224
  y: -0.10048828274011612
  z: 9.967480659484863
linear_acceleration_covariance:
- 100.0
- 0.0
- 0.0
- 0.0
- 100.0
- 0.0
- 0.0
- 0.0
- 100.0
---
header:
  stamp:
    sec: 1760270670
    nanosec: 475577207
  frame_id: imu_link
orientation:
  x: 0.0
  y: 0.0
  z: 0.0
  w: 0.0
orientation_covariance:
- -1.0
- 0.0
- 0.0
- 0.0
- 0.0
- 0.0
- 0.0
- 0.0
- 0.0
angular_velocity:
  x: -0.0021305298432707787
  y: -0.005326324608176947
  z: -0.0031957945320755243
angular_velocity_covariance:
- 0.0
- 0.0
- 0.0
- 0.0
- 0.0
- 0.0
- 0.0
- 0.0
- 0.0
linear_acceleration:
  x: -0.08613281697034836
  y: -0.107666015625
  z: 9.965087890625
linear_acceleration_covariance:
- 100.0
- 0.0
- 0.0
- 0.0
- 100.0
- 0.0
- 0.0
- 0.0
- 100.0
---
header:
  stamp:
    sec: 1760270670
    nanosec: 498575207
  frame_id: imu_link
orientation:
  x: 0.0
  y: 0.0
  z: 0.0
  w: 0.0
orientation_covariance:
- -1.0
- 0.0
- 0.0
- 0.0
- 0.0
- 0.0
- 0.0
- 0.0
- 0.0
angular_velocity:
  x: 0.0
  y: -0.004261059686541557
  z: -0.0021305298432707787
angular_velocity_covariance:
- 0.0
- 0.0
- 0.0
- 0.0
- 0.0
- 0.0
- 0.0
- 0.0
- 0.0
linear_acceleration:
  x: -0.095703125
  y: -0.09091796725988388
  z: 9.965087890625
linear_acceleration_covariance:
- 100.0
- 0.0
- 0.0
- 0.0
- 100.0
- 0.0
- 0.0
- 0.0
- 100.0
---
header:
  stamp:
    sec: 1760270670
    nanosec: 520577207
  frame_id: imu_link
orientation:
  x: 0.0
  y: 0.0
  z: 0.0
  w: 0.0
orientation_covariance:
- -1.0
- 0.0
- 0.0
- 0.0
- 0.0
- 0.0
- 0.0
- 0.0
- 0.0
angular_velocity:
  x: 0.0021305298432707787
  y: -0.0031957945320755243
  z: -0.0021305298432707787
angular_velocity_covariance:
- 0.0
- 0.0
- 0.0
- 0.0
- 0.0
- 0.0
- 0.0
- 0.0
- 0.0
linear_acceleration:
  x: -0.10048828274011612
  y: -0.09809570759534836
  z: 9.97226619720459
linear_acceleration_covariance:
- 100.0
- 0.0
- 0.0
- 0.0
- 100.0
- 0.0
- 0.0
- 0.0
- 100.0
---
header:
  stamp:
    sec: 1760270670
    nanosec: 542575207
  frame_id: imu_link
orientation:
  x: 0.0
  y: 0.0
  z: 0.0
  w: 0.0
orientation_covariance:
- -1.0
- 0.0
- 0.0
- 0.0
- 0.0
- 0.0
- 0.0
- 0.0
- 0.0
angular_velocity:
  x: -0.0010652649216353893
  y: -0.006391589064151049
  z: -0.0021305298432707787
angular_velocity_covariance:
- 0.0
- 0.0
- 0.0
- 0.0
- 0.0
- 0.0
- 0.0
- 0.0
- 0.0
linear_acceleration:
  x: -0.08852539211511612
  y: -0.11245117336511612
  z: 9.94834041595459
linear_acceleration_covariance:
- 100.0
- 0.0
- 0.0
- 0.0
- 100.0
- 0.0
- 0.0
- 0.0
- 100.0
---
header:
  stamp:
    sec: 1760270670
    nanosec: 564577207
  frame_id: imu_link
orientation:
  x: 0.0
  y: 0.0
  z: 0.0
  w: 0.0
orientation_covariance:
- -1.0
